OTU	id	sample_location	sample_id	line_number	sample_type	date	time	temperature_C	Humidity	length_underground	length_superficial	length_elevated	length_total	elevation	station_hubs	train_track	train_notes	station_notes	geographical_zone	weather	stations_number	latitude	longitude	people_affluence	Observed	Chao1	Shannon	Simpson
Rosario_7	Rosario_7	Rosario	AM03	7	Torniquete	2029-04-16	12:40:00 PM	29.2	29	17.754	0	0	18	2257	Terminal_correspondencia	Neumatico	Independiente	Elevada	Norte	C1	14	19.505	-99.1797	3220719	11986	18521.13043	6.718173913	0.989251003
Merced_1	Merced_1	Merced	AM23	1	Torniquete	2029-04-16	02:30:00 PM	31.4	30	16.786	0	0	18	2231	Paso	Neumatico	Independiente	Superficial	Centro	B1	20	19.42579	-99.12501	4377638	10129	14588.96493	6.023258013	0.937075861
Deportivo_18_de_marzo_3	Deportivo_18_de_marzo_3	Deportivo_18_de_marzo	AM17	3	Torniquete	02/05/16	02:07:00 PM	30.7	26	18.145	4.449	0	23	2240	Correspondecia	Neumatico	Independiente	Cajon_subterraneo	Norte	C1	21	19.48635	-99.12493	3152077	16179	22648.82739	7.147670365	0.991464196
Indios_verdes_3	Indios_verdes_3	Indios_verdes	AM01	3	Torniquete	02/05/16	02:23:00 PM	30.4	27	18.145	4.449	0	23	2240	Terminal	Neumatico	Independiente	Cajon_subterraneo	Norte	C1	21	19.4955	-99.1194	10176457	12677	19699.21927	7.160039497	0.992155596
Instituto_del_petroleo_5	Instituto_del_petroleo_5	Instituto_del_petroleo	AM02	5	Torniquete	2029-04-16	01:17:00 PM	28.3	30	4.951	10.724	0	16	2244	Correspondecia	Neumatico	Independiente	Cajon_subterraneo	Norte	C1	13	19.489	-99.1448	499350	10722	16496.38113	6.417884587	0.989012024
Observatorio_1	Observatorio_1	Observatorio	AM06	1	Torniquete	04/05/16	02:35:00 PM	32.2	28	16.786	0	0	18	2303	Terminal	Neumatico	Independiente	Elevada	Poniente	C2	20	19.3985	-99.19978	6489055	10523	17035.5115	6.437592116	0.985903208
Barranca_del_muerto_7	Barranca_del_muerto_7	Barranca_del_muerto	AM07	7	Torniquete	2027-04-16	12:20:00 PM	28.6	28	17.754	0	0	18	2288	Terminal	Neumatico	Independiente	Tunel	Sur	C2	14	19.36168	-99.18882	3347042	7810	11643.92566	6.503180567	0.993749529
Universidad_3	Universidad_3	Universidad	AM08	3	Torniquete	2027-04-16	11:44:00 AM	28.6	31	18.145	4.449	0	23	2278	Terminal	Neumatico	Independiente	Elevada	Sur	C2	21	19.3244	-99.17334	6353423	13365	19368.05662	6.863281339	0.977041363
Tasqueͱa_2	Tasqueͱa_2	Tasqueͱa	AM09	2	Torniquete	2027-04-16	10:50:00 AM	25.9	38	12.55	9.456	0	22	2246	Terminal	Neumatico	Oruga	Elevada	Sur	C1	24	19.3439	-99.139	6856836	6755	10879.89628	6.235385912	0.990121456
Tlahuac_12	Tlahuac_12	Tlahuac	AM10	12	Torniquete	04/05/16	12:40:00 PM	28.5	29	11.4	0	11.533	25	2243	Terminal	Ferreo	Oruga	Elevada	Sur	C1	20	19.2892	-99.0146	2997741	11069	16534.94715	6.757451125	0.991983063
Buenavista_B	Buenavista_B	Buenavista	AM11	11(B)	Torniquete	2028-04-16	01:04:00 PM	31.3	27	5.38	12.68	4.185	22	2234	Terminal	Neumatico	Independiente	Cajon_subterraneo	Norte	C1	21	19.44676	-99.15219	4866765	8951	13604.96701	6.110651328	0.983076168
Constitucion_de_1917_8	Constitucion_de_1917_8	Constitucion_de_1917	AM12	8	Torniquete	03/05/16	01:10:00 PM	32.1	34	14.301	5.073	0	19	2244	Terminal	Neumatico	Independiente	Elevada	Oriente	C1	19	19.3444	-99.06317	7934733	15486	23052.13549	7.099527927	0.992330019
Pantitlan_A	Pantitlan_A	Pantitlan	AM14	10(A)	Torniquete	03/05/16	11:25:00 AM	26.9	41	2.041	15.151	0	17	2237	Terminal	Ferreo	Oruga	Cajon_subterraneo	Oriente	B1	10	19.41615	-99.0743	10023285	4016	6100.175926	5.074410731	0.964860107
Ciudad_Azteca_B	Ciudad_Azteca_B	Ciudad_Azteca	AM15	11(B)	Torniquete	02/05/16	12:43:00 PM	30.8	26	5.38	12.68	4.185	22	2238	Terminal_correspondencia	Neumatico	Independiente	Elevada	Oriente	B1	21	19.5348	-99.02685	5604284	14683	21531.2137	7.348566737	0.995317554
Martin_Carera_6	Martin_Carera_6	Martin_Carera	AM16	6	Torniquete	02/05/16	01:46:00 PM	30.2	26	11.858	0	0	13	2240	Terminal_correspondencia	Neumatico	Independiente	Cajon_subterraneo	Norte	C1	11	19.4852	-99.10378	2308196	14164	19905.84495	7.36192237	0.995996615
Tacuba_2	Tacuba_2	Tacuba	AM18	2	Torniquete	2029-04-16	12:05:00 PM	29.6	29	12.55	9.456	0	22	2256	Correspondecia	Neumatico	Oruga	Cajon_subterraneo	Norte	C1	24	19.45954	-99.18796	3166159	13648	20406.59009	7.303358393	0.995068699
M_Muzquiz_B	M_Muzquiz_B	M_Muzquiz	AM19	11(B)	Torniquete	02/05/16	12:30:00 PM	30.8	28	5.38	12.68	4.185	22	2240	Paso	Neumatico	Independiente	Elevada	Oriente	B1	21	19.50148	-99.04152	2990086	15537	21636.19068	7.306974338	0.994366708
San_Juan_de_Letran_8	San_Juan_de_Letran_8	San_Juan_de_Letran	AM20	8	Torniquete	2028-04-16	01:26:00 PM	30.6	27	14.301	5.073	0	19	2232	Paso	Neumatico	Independiente	Cajon_subterraneo	Centro	C1	19	19.43208	-99.14043	2636193	15301	22159.67469	7.06915198	0.989358687
Zocalo_2	Zocalo_2	Zocalo	AM21	2	Torniquete	2028-04-16	11:42:00 AM	29.1	31	12.55	9.456	0	22	2232	Paso	Neumatico	Oruga	Cajon_subterraneo	Centro	C1	24	19.43318	-99.1319	6118795	5333	8540.195677	6.081413944	0.991382351
Insurgentes_1	Insurgentes_1	Insurgentes	AM22	1	Torniquete	2028-04-16	02:20:00 PM	32.2	27	16.786	0	0	18	2234	Paso	Neumatico	Independiente	Superficial	Centro	C1	20	19.42393	-99.16288	5297208	2825	4282.210832	4.101922924	0.898445687
Chilpancingo_9	Chilpancingo_9	Chilpancingo	AM24	9	Torniquete	2027-04-16	01:25:00 PM	31.3	26	9.531	0	4.913	14	2237	Paso	Neumatico	Independiente	Cajon_subterraneo	Centro	C1	12	19.40603	-99.16841	3893446	14974	21959.02053	7.019852661	0.991614849
Train_2_AM26	Train_2_AM26	Train	AM26	2	Pasamanos	2029-04-16	12:09:00 PM	30.9	29	12.55	9.456	0	22	NA	Train	Neumatico	Oruga	NA	NA	NA	24	NA	NA	66232325	7655	12114.51351	5.974409252	0.97971198
Train_3_AM27	Train_3_AM27	Train	AM27	3	Pasamanos	2027-04-16	11:25:00 AM	29.3	35	18.145	4.449	0	23	NA	Train	Neumatico	Independiente	NA	NA	NA	21	NA	NA	54258403	10527	15722.5523	6.375218195	0.98856445
Train_4_AM28	Train_4_AM28	Train	AM28	4	Pasamanos	02/05/16	01:35:00 PM	32.7	26	0	0	9.435	11	NA	Train	Neumatico	Independiente	NA	NA	NA	10	NA	NA	7146862	9462	14163.14387	6.094343032	0.976238226
Train_5_AM29	Train_5_AM29	Train	AM29	5	Pasamanos	2029-04-16	01:30:00 PM	30	30	4.951	10.724	0	16	NA	Train	Neumatico	Independiente	NA	NA	NA	13	NA	NA	20137141	10132	15290.40438	6.630565876	0.99138188
Train_6_AM30	Train_6_AM30	Train	AM30	6	Pasamanos	2029-04-16	12:50:00 PM	28.8	30	11.858	0	0	13	NA	Train	Neumatico	Independiente	NA	NA	NA	11	NA	NA	11810259	13152	18221.90127	7.384370339	0.994588825
Train_7_AM31	Train_7_AM31	Train	AM31	7	Pasamanos	2027-04-16	12:35:00 PM	29.7	30	17.754	0	0	18	NA	Train	Neumatico	Independiente	NA	NA	NA	14	NA	NA	24196452	7061	11649.52732	6.004058085	0.986754674
Train_8_AM32	Train_8_AM32	Train	AM32	8	Pasamanos	03/05/16	01:29:00 PM	31.6	34	14.301	5.073	0	19	NA	Train	Neumatico	Independiente	NA	NA	NA	19	NA	NA	32295124	8720	13347.26761	5.979671435	0.980198582
Train_9_AM33	Train_9_AM33	Train	AM33	9	Pasamanos	04/05/16	01:50:00 PM	32.1	30	9.531	0	4.913	14	NA	Train	Neumatico	Independiente	NA	NA	NA	12	NA	NA	27481033	10660	15633.66339	6.266153151	0.983409907
Train_A_AM34	Train_A_AM34	Train	AM34	10(A)	Pasamanos	03/05/16	11:38:00 AM	27.9	41	2.041	15.151	0	17	NA	Train	Ferreo	Oruga	NA	NA	NA	10	NA	NA	23624923	10217	15301.15944	6.351111015	0.986989035
Train_1_AM37	Train_1_AM37	Train	AM37	1	Pasamanos	2028-04-16	02:25:00 PM	32.5	27	16.786	0	0	18	NA	Train	Neumatico	Independiente	NA	NA	NA	20	NA	NA	61536150	10832	16300.27351	6.326440598	0.984335486
Train_2_AM38	Train_2_AM38	Train	AM38	2	Pasamanos	2028-04-16	12:23:00 PM	31.1	26	12.55	9.456	0	22	NA	Train	Neumatico	Oruga	NA	NA	NA	24	NA	NA	66232325	9433	16615.33829	6.409897844	0.984007195
Train_3_AM39	Train_3_AM39	Train	AM39	3	Pasamanos	2027-04-16	11:55:00 AM	29.3	32	18.145	4.449	0	23	NA	Train	Neumatico	Independiente	NA	NA	NA	21	NA	NA	54258403	10797	17180.85463	6.959298037	0.99180874
Train_5_AM41	Train_5_AM41	Train	AM41	5	Pasamanos	2029-04-16	01:29:00 PM	30.2	30	4.951	10.724	0	16	NA	Train	Neumatico	Independiente	NA	NA	NA	13	NA	NA	20137141	10059	16798.69518	6.477516958	0.984560836
Train_6_AM42	Train_6_AM42	Train	AM42	6	Pasamanos	2029-04-16	01:05:00 PM	29.3	32	11.858	0	0	13	NA	Train	Neumatico	Independiente	NA	NA	NA	11	NA	NA	11810259	9366	15260.64952	6.546484476	0.987206688
Train_9_AM45	Train_9_AM45	Train	AM45	9	Pasamanos	04/05/16	02:06:00 PM	32.3	30	9.531	0	4.913	14	NA	Train	Neumatico	Independiente	NA	NA	NA	12	NA	NA	27481033	7537	13035.05397	5.93017768	0.984647357
Train_A_AM46	Train_A_AM46	Train	AM46	10(A)	Pasamanos	03/05/16	11:30:00 AM	27.1	41	2.041	15.151	0	17	NA	Train	Ferreo	Oruga	NA	NA	NA	10	NA	NA	23624923	9700	16349.42257	6.599719425	0.988132845
Train_B_AM47	Train_B_AM47	Train	AM47	11(B)	Pasamanos	02/05/16	12:39:00 PM	31.2	29	5.38	12.68	4.185	22	NA	Train	Neumatico	Independiente	NA	NA	NA	21	NA	NA	39089567	8438	14052.77401	5.69964293	0.964837531
Cuatro_caminos_2	Cuatro_caminos_2	Cuatro_caminos	AM04	2	Torniquete	2029-04-16	11:42:00 AM	30.3	30	12.55	9.456	0	22	2275	Terminal	Neumatico	Oruga	Superficial	Poniente	C2	24	19.4606	-99.2155	9523016	5425	8341.261168	6.283000742	0.99397374
La_paz_A_AM13	La_paz_A_AM13	La_paz	AM13	10(A)	Torniquete	03/05/16	12:02:00 PM	29.1	37	2.041	15.151	0	17	2251	Terminal	Ferreo	Oruga	Elevada	Oriente	C1	10	19.35071	-98.96045	2772477	10634	15375.84856	6.719212579	0.988432048
Train_B_AM35	Train_B_AM35	Train	AM35	11(B)	Pasamanos	02/05/16	12:50:00 PM	31.3	26	5.38	12.68	4.185	22	NA	Train	Neumatico	Independiente	NA	NA	NA	21	NA	NA	39089567	12798	18649.0118	6.599620709	0.982303483
Train_12_AM36	Train_12_AM36	Train	AM36	12	Pasamanos	04/05/16	12:05:00 PM	27.6	37	11.4	0	11.533	25	NA	Train	Ferreo	Oruga	NA	NA	NA	20	NA	NA	23252166	5417	8395.819915	5.586619263	0.979269029
Train_4_AM40	Train_4_AM40	Train	AM40	4	Pasamanos	02/05/16	01:20:00 PM	33.3	25	0	0	9.435	11	NA	Train	Neumatico	Independiente	NA	NA	NA	10	NA	NA	7146862	8300	14041.77943	6.15093571	0.984148611
Train_7_AM43	Train_7_AM43	Train	AM43	7	Pasamanos	2027-04-16	12:57:00 PM	31	29	17.754	0.646	0	18	NA	Train	Neumatico	Independiente	NA	NA	NA	14	NA	NA	24196452	7366	12618.14022	5.804439297	0.965813831
Train_8_AM44	Train_8_AM44	Train	AM44	8	Pasamanos	03/05/16	01:20:00 PM	31.4	33	14.301	5.073	0	19	NA	Train	Neumatico	Independiente	NA	NA	NA	19	NA	NA	32295124	8942	14530.28923	5.542648634	0.958585342
Train_12_AM48	Train_12_AM48	Train	AM48	12	Pasamanos	04/05/16	12:15:00 PM	27.8	35	11.4	1.7	11.533	25	NA	Train	Ferreo	Oruga	NA	NA	NA	20	NA	NA	23252166	6276	11209.15296	5.719053145	0.977858711
Tacubaya_9	Tacubaya_9	Tacubaya	AM05	9	Torniquete	2027-04-16	01:41:00 PM	30.4	26	9.531	0	4.913	14	2269	Terminal_correspondencia	Neumatico	Independiente	Cajon_subterraneo	Poniente	C1	12	19.4024	-99.1883	4190568	428	840.2461538	5.309639574	0.98992658